[
 {
  "address": "Sheridan Rd - Granville Ave",
  "commissioned_at": "2018/01/02 15:06:52",
  "coords": {
   "lat": 41.994454,
   "lon": -87.6553316
  },
  "description": "AoT Chicago (S) [C]",
  "node_id": "001e0610b9e5",
  "vsn": "02F"
 },
 {
  "address": "Broadway Ave - Lawrence Ave [NEC]",
  "commissioned_at": "2018/02/16 00:20:00",
  "coords": {
   "lat": 41.9691029,
   "lon": -87.6601463
  },
  "description": "AoT Chicago (S) [C]",
  "node_id": "001e0610b9e9",
  "vsn": "080"
 },
 {
  "address": "Ohio St - Grand Ave [NEX]",
  "commissioned_at": "2018/02/19 22:14:35",
  "coords": {
   "lat": 41.891897,
   "lon": -87.627507
  },
  "description": "AoT Chicago (S) [C]",
  "node_id": "001e0610ba16",
  "vsn": "010"
 },
 {
  "address": "Damen Ave - Cermak [SEC]",
  "commissioned_at": "2018/01/02 15:28:43",
  "coords": {
   "lat": 42.0024119,
   "lon": -87.6796016
  },
  "description": "AoT Chicago (S)",
  "node_id": "001e0610ba18",
  "vsn": "01D"
 },
 {
  "address": "18th St - Lake Shore Dr",
  "commissioned_at": "2017/11/21 16:33:16",
  "coords": {
   "lat": 41.8568061,
   "lon": -87.6146268
  },
  "description": "AoT Chicago (S)",
  "node_id": "001e0610ba3b",
  "vsn": "006"
 },
 {
  "address": "Western Ave - Madison St",
  "commissioned_at": "2018/01/02 15:04:46",
  "coords": {
   "lat": 41.88051970000001,
   "lon": -87.6856644
  },
  "description": "AoT Chicago (S)",
  "node_id": "001e0610ba57",
  "vsn": "041"
 },
 {
  "address": "Lake Shore Drive - 85th St",
  "commissioned_at": "2018/02/19 22:17:06",
  "coords": {
   "lat": 41.4632047,
   "lon": -87.4677561
  },
  "description": "AoT Chicago (S)",
  "node_id": "001e0610ba81",
  "vsn": "040"
 },
 {
  "address": "Cornell - 47th St",
  "commissioned_at": "2018/02/19 22:14:02",
  "coords": {
   "lat": 41.8023916,
   "lon": -87.6710583
  },
  "description": "AoT Chicago (S)",
  "node_id": "001e0610ba8f",
  "vsn": "00D"
 },
 {
  "address": "Martin Luther King Dr. - 87th St.",
  "commissioned_at": "2018/02/20 20:45:21",
  "coords": {
   "lat": 41.73828830000001,
   "lon": -87.57287509999999
  },
  "description": "AoT Chicago (S) [C]",
  "node_id": "001e0610bbe5",
  "vsn": "02C"
 },
 {
  "address": "Western Ave - 69th St [SEC]",
  "commissioned_at": "2018/02/16 00:21:36",
  "coords": {
   "lat": 41.7681762,
   "lon": -87.68260310000001
  },
  "description": "AoT Chicago (S) [C]",
  "node_id": "001e0610bbf9",
  "vsn": "020"
 },
 {
  "address": "Western Ave - 18th St [SEC]",
  "commissioned_at": "2018/02/19 22:15:08",
  "coords": {
   "lat": 41.856527,
   "lon": -87.6855564
  },
  "description": "AoT Chicago (S)",
  "node_id": "001e0610bbff",
  "vsn": "025"
 },
 {
  "address": "Kedzie Ave - 5th Ave [NEC]",
  "commissioned_at": "2018/01/02 15:05:21",
  "coords": {
   "lat": 41.876372,
   "lon": -87.7072464
  },
  "description": "AoT Chicago (S)",
  "node_id": "001e0610bc07",
  "vsn": "03C"
 },
 {
  "address": "Ashland Ave - 79th St [SEC]",
  "commissioned_at": "2018/02/19 22:17:52",
  "coords": {
   "lat": 41.75044219999999,
   "lon": -87.6639672
  },
  "description": "AoT Chicago (S) [C]",
  "node_id": "001e0610bc12",
  "vsn": "085"
 },
 {
  "address": "Racine Ave - 18th St [SEC]",
  "commissioned_at": "2018/01/02 15:26:51",
  "coords": {
   "lat": 41.85818,
   "lon": -87.65648999999999
  },
  "description": "AoT Chicago (S) [C]",
  "node_id": "001e0610e532",
  "vsn": "053"
 },
 {
  "address": "Clark St - Montrose Ave [NWX]",
  "commissioned_at": "2018/02/19 16:46:14",
  "coords": {
   "lat": 41.9608272,
   "lon": -87.73886689999999
  },
  "description": "AoT Chicago (S) [C]",
  "node_id": "001e0610e537",
  "vsn": "08F"
 },
 {
  "address": "Cottage Grove Ave - 87th St",
  "commissioned_at": "2018/02/20 20:37:17",
  "coords": {
   "lat": 41.7378844,
   "lon": -87.6056006
  },
  "description": "AoT Chicago (S) [C]",
  "node_id": "001e0610e538",
  "vsn": "087"
 },
 {
  "address": "Cicero Ave - Madison St",
  "commissioned_at": "2018/02/07 20:43:54",
  "coords": {
   "lat": 41.879763,
   "lon": -87.7954683
  },
  "description": "AoT Chicago (S) [C]",
  "node_id": "001e0610e539",
  "vsn": "07E"
 },
 {
  "address": "Fort Dearborn Dr - 31st St [NEX]",
  "commissioned_at": "2018/01/02 15:09:34",
  "coords": {
   "lat": 41.838483,
   "lon": -87.60820919999999
  },
  "description": "AoT Chicago (S) [C]",
  "node_id": "001e0610e540",
  "vsn": "05A"
 },
 {
  "address": "Ashland Ave - Division St.",
  "commissioned_at": "2017/11/21 17:30:53",
  "coords": {
   "lat": 41.903456,
   "lon": -87.66776999999999
  },
  "description": "AoT Chicago (S)",
  "node_id": "001e0610e809",
  "vsn": "050"
 },
 {
  "address": "Damen Ave - Lawrence Ave",
  "commissioned_at": "2018/02/20 20:07:26",
  "coords": {
   "lat": 41.9689086,
   "lon": -87.67939059999999
  },
  "description": "AoT Chicago (S) [C]",
  "node_id": "001e0610e835",
  "vsn": "086"
 },
 {
  "address": "606 Path - Milwaukee Ave",
  "commissioned_at": "2018/01/22 21:10:28",
  "coords": {
   "lat": 41.8923213,
   "lon": -87.6493665
  },
  "description": "AoT Chicago (S)",
  "node_id": "001e0610ea5a",
  "vsn": "03E"
 },
 {
  "address": "Damen Ave - Wilson Ave",
  "commissioned_at": "2018/02/20 20:13:35",
  "coords": {
   "lat": 41.964821,
   "lon": -87.67853099999999
  },
  "description": "AoT Chicago (S)",
  "node_id": "001e0610ee33",
  "vsn": "02D"
 },
 {
  "address": "Wood St - Warren Blv [NEX]",
  "commissioned_at": "2018/01/02 15:04:01",
  "coords": {
   "lat": 41.9625047,
   "lon": -87.99789260000001
  },
  "description": "AoT Chicago (S) [C]",
  "node_id": "001e0610ee41",
  "vsn": "032"
 },
 {
  "address": "Pulaski Rd - Madison St",
  "commissioned_at": "2018/01/02 15:06:08",
  "coords": {
   "lat": 41.8804622,
   "lon": -87.72582609999999
  },
  "description": "AoT Chicago (S)",
  "node_id": "001e0610ee61",
  "vsn": "03F"
 },
 {
  "address": "Damen Ave - Chicago Int'l Produce Mkt",
  "commissioned_at": "2018/01/02 15:29:27",
  "coords": {
   "lat": 42.0024119,
   "lon": -87.6796016
  },
  "description": "AoT Chicago (S)",
  "node_id": "001e0610ee6f",
  "vsn": "04E"
 },
 {
  "address": "Damen Ave - Webster",
  "commissioned_at": "2018/02/20 19:26:58",
  "coords": {
   "lat": 41.921213,
   "lon": -87.677387
  },
  "description": "AoT Chicago (S) [C]",
  "node_id": "001e0610ee82",
  "vsn": "048"
 },
 {
  "address": "Wood St - Milwaukee Ave [NEX]",
  "commissioned_at": "2018/02/19 22:15:44",
  "coords": {
   "lat": 41.9067303,
   "lon": -87.6722312
  },
  "description": "AoT Chicago (S)",
  "node_id": "001e0610eee9",
  "vsn": "03A"
 },
 {
  "address": "Lake Shore Drive - Fullerton Ave (NWC)",
  "commissioned_at": "2018/02/19 22:16:33",
  "coords": {
   "lat": 41.9270782,
   "lon": -87.6306335
  },
  "description": "AoT Chicago (S) [C]",
  "node_id": "001e0610eef0",
  "vsn": "03B"
 },
 {
  "address": "Clark St - Wilson Ave [SEC]",
  "commissioned_at": "2018/02/19 16:46:53",
  "coords": {
   "lat": 41.9660259,
   "lon": -87.667487
  },
  "description": "AoT Chicago (S) [C]",
  "node_id": "001e0610eef2",
  "vsn": "088"
 },
 {
  "address": "Milwaukee Ave - Wabansia Ave (NWX)",
  "commissioned_at": "2018/01/02 15:35:22",
  "coords": {
   "lat": 41.912624,
   "lon": -87.681488
  },
  "description": "AoT Chicago (S)",
  "node_id": "001e0610eef4",
  "vsn": "034"
 },
 {
  "address": "Halsted St - Randolph St [NEC]",
  "commissioned_at": "2018/01/02 15:02:47",
  "coords": {
   "lat": 41.8846582,
   "lon": -87.6476668
  },
  "description": "AoT Chicago (S)",
  "node_id": "001e0610ef26",
  "vsn": "03D"
 },
 {
  "address": "Western Ave - 25th St [NWC]",
  "commissioned_at": "2018/01/31 22:09:55",
  "coords": {
   "lat": 41.8457656,
   "lon": -87.8057614
  },
  "description": "AoT Chicago (S) [C]",
  "node_id": "001e0610ef27",
  "vsn": "04C"
 },
 {
  "address": "Ashland Ave - 18th St (SWX)",
  "commissioned_at": "2018/01/02 15:11:43",
  "coords": {
   "lat": 41.857535,
   "lon": -87.666295
  },
  "description": "AoT Chicago (S)",
  "node_id": "001e0610ef68",
  "vsn": "04F"
 },
 {
  "address": "Western Ave - Fullerton Ave [NWC]",
  "commissioned_at": "2018/02/16 00:18:43",
  "coords": {
   "lat": 41.9251177,
   "lon": -87.6882583
  },
  "description": "AoT Chicago (S) [C]",
  "node_id": "001e0610f05c",
  "vsn": "08C"
 },
 {
  "address": "Damen Ave - Archer [SEC]",
  "commissioned_at": "2018/01/02 15:30:03",
  "coords": {
   "lat": 41.7957436,
   "lon": -87.67435859999999
  },
  "description": "AoT Chicago (S)",
  "node_id": "001e0610f668",
  "vsn": "038"
 },
 {
  "address": "Pulaski Rd - Chicago Ave",
  "commissioned_at": "2018/02/16 00:23:58",
  "coords": {
   "lat": 41.9389559,
   "lon": -87.727173
  },
  "description": "AoT Chicago (S) [C]",
  "node_id": "001e0610f6dd",
  "vsn": "05D"
 },
 {
  "address": "Damen Ave - Polk St",
  "commissioned_at": "2018/02/19 21:32:52",
  "coords": {
   "lat": 41.872133,
   "lon": -87.64137269999999
  },
  "description": "AoT Chicago (S) [C]",
  "node_id": "001e0610f703",
  "vsn": "07F"
 },
 {
  "address": "Wood St - Warren Blvd - NEX",
  "commissioned_at": "2018/01/02 15:34:06",
  "description": "AoT Chicago (S)",
  "node_id": "001e0610f730",
  "vsn": "039"
 },
 {
  "address": "Cicero Ave - Chicago Ave",
  "commissioned_at": "2018/02/07 20:47:16",
  "coords": {
   "lat": 41.89538110000001,
   "lon": -87.7453841
  },
  "description": "AoT Chicago (S) [C]",
  "node_id": "001e0610f732",
  "vsn": "08D"
 },
 {
  "address": "Halsted St - 34th St. [NEC]",
  "commissioned_at": "2018/02/16 00:16:55",
  "coords": {
   "lat": 41.8324363,
   "lon": -87.6458069
  },
  "description": "AoT Chicago (S) [C]",
  "node_id": "001e0610f8f4",
  "vsn": "030"
 },
 {
  "address": "Leavitt St - Milwaukee Ave",
  "commissioned_at": "2018/01/02 15:35:44",
  "coords": {
   "lat": 41.9102658,
   "lon": -87.68229769999999
  },
  "description": "AoT Chicago (S)",
  "node_id": "001e0610fb4c",
  "vsn": "04D"
 },
 {
  "address": "Chicago Ave - Noble St.",
  "commissioned_at": "2018/02/07 20:46:12",
  "coords": {
   "lat": 41.8960695,
   "lon": -87.6607112
  },
  "description": "AoT Chicago (S) [C]",
  "node_id": "001e061130f4",
  "vsn": "089"
 },
 {
  "address": "Cottage Grove Ave - 111th St [NWC]",
  "commissioned_at": "2018/02/16 00:17:34",
  "coords": {
   "lat": 41.6931379,
   "lon": -87.6094919
  },
  "description": "AoT Chicago (S) [C]",
  "node_id": "001e06113100",
  "vsn": "08E"
 },
 {
  "address": "Ashland - 63rd St [SWC]",
  "commissioned_at": "2018/02/16 00:22:28",
  "coords": {
   "lat": 41.77886000000001,
   "lon": -87.663766
  },
  "description": "AoT Chicago (S) [C]",
  "node_id": "001e061135cb",
  "vsn": "052"
 }
]
